City_ID,City,Country,Max Temp,Current Description,Lat,Lng,Hotel Name
1,Saint-Pierre,RE,76.91,broken clouds,-21.3393,55.4781,Lindsey Hôtel
6,Ridgecrest,US,75.06,clear sky,35.6225,-117.6709,SpringHill Suites by Marriott Ridgecrest
10,Hermanus,ZA,53.8,light rain,-34.4187,19.2345,Misty Waves Boutique Hotel
17,Mataura,NZ,65.48,scattered clouds,-46.1927,168.8643,Ellie's Villa
20,Saint-Philippe,RE,76.21,moderate rain,-21.3585,55.7679,"Chambres d'hôte ""La Trinité"""
24,Lambarene,GA,75.78,light rain,-0.7001,10.2406,Le Refuge
27,East London,ZA,68.07,moderate rain,-33.0153,27.9116,Tu Casa
28,Mar Del Plata,AR,66.09,clear sky,-38.0023,-57.5575,Gran Hotel Mar del Plata
31,Bluff,NZ,65.8,scattered clouds,-46.6,168.3333,Bluff Homestead - Guesthouse & Campervan Park
32,Lima,PE,72.39,overcast clouds,-12.0432,-77.0282,Hotel Kamana
33,Port Alfred,ZA,66.74,light rain,-33.5906,26.891,The Halyards Hotel
35,Cape Town,ZA,57.11,few clouds,-33.9258,18.4232,"Radisson Blu Hotel Waterfront, Cape Town"
40,Port Elizabeth,ZA,61.11,light rain,-33.918,25.5701,39 On Nile Guest House
42,Cabo San Lucas,MX,73.71,scattered clouds,22.8909,-109.9124,Hotel Tesoro Los Cabos
45,Rodeo,US,64.29,clear sky,38.033,-122.2669,Captain's Cottage
46,Busselton,AU,72.86,broken clouds,-33.65,115.3333,Observatory Guest House
50,Katsuura,JP,65.73,scattered clouds,35.1333,140.3,Katsuura Hotel Mikazuki
52,Bredasdorp,ZA,57.85,broken clouds,-34.5322,20.0403,Bredasdorp Country Manor
54,Carutapera,BR,75.87,overcast clouds,-1.195,-46.02,Lidera
56,Guerrero Negro,MX,62.15,clear sky,27.9769,-114.0611,"Casa Laguna, Bed & Breakfast"
57,Carnarvon,AU,77.56,clear sky,-24.8667,113.6333,Hospitality Carnarvon
58,Wencheng,CN,59.45,scattered clouds,33.0559,113.7978,Ruyi Hostel
61,Yuci,CN,49.75,haze,37.6803,112.7319,Thank Inn Plus Hotel Shanxi Jinzhong Yuci District Yingbin West Street Yinhaixinyue
62,Hilton Head Island,US,46.45,clear sky,32.2163,-80.7526,Disney’s Hilton Head Island Resort
64,Pacifica,US,62.96,broken clouds,37.6138,-122.4869,"Pacifica Lighthouse, Trademark Collection by Wyndham"
65,Gamba,GA,76.98,light rain,-2.65,10.0,
66,Bathsheba,BB,77.61,broken clouds,13.2167,-59.5167,Atlantis Hotel
67,Castro,BR,63.59,overcast clouds,-24.7911,-50.0119,CHACARA BAILLY
70,New Norfolk,AU,65.7,overcast clouds,-42.7826,147.0587,The Shingles Riverside Cottages
71,Key West,US,71.01,clear sky,24.5557,-81.7826,Fairfield Inn & Suites by Marriott Key West
73,Lagoa,PT,55.42,overcast clouds,39.05,-27.9833,Casa Das Faias
76,Te Anau,NZ,68.94,broken clouds,-45.4167,167.7167,Kingsgate Hotel Te Anau
77,Maridi,SS,71.87,broken clouds,4.9158,29.4742,
80,Rio Gallegos,AR,48.25,clear sky,-51.6226,-69.2181,Hotel Santa Cruz
81,Arraial Do Cabo,BR,77.74,clear sky,-22.9661,-42.0278,Pousada Porto Praia
92,Quebo,GW,70.14,scattered clouds,11.3333,-14.9333,
94,Lompoc,US,68.56,broken clouds,34.6391,-120.4579,"Holiday Inn Express Lompoc, an IHG Hotel"
99,Shache,CN,52.27,broken clouds,38.4167,77.2406,Delong Hotel
100,Baracoa,CU,76.26,few clouds,20.3467,-74.4958,Hostal Rio Miel
101,Aden,YE,77.31,clear sky,12.7794,45.0367,Sama Emirate Hotel
103,Valle De Allende,MX,66.79,overcast clouds,26.9333,-105.4,Hotel Meson de San Bartolome
104,Padang,ID,77.05,overcast clouds,-0.9492,100.3543,Mercure Padang
105,Chuy,UY,60.55,clear sky,-33.6971,-53.4616,Nuevo Hotel Plaza
106,Puerto Berrio,CO,74.86,broken clouds,6.4916,-74.4033,Hotel Central
114,Fortuna,US,55.92,clear sky,40.5982,-124.1573,Super 8 by Wyndham Fortuna
117,San Patricio,US,64.27,overcast clouds,28.017,-97.5169,"Motel 6 Sinton, TX"
118,Ahualulco,MX,64.22,clear sky,22.4,-101.1667,Hotel Aurelieus
119,Mount Gambier,AU,72.68,overcast clouds,-37.8333,140.7667,The Commodore
121,Saldanha,ZA,60.66,overcast clouds,-33.0117,17.9442,Blue Bay Lodge
122,Suratgarh,IN,73.2,clear sky,29.3167,73.9,Maharaja Hotel
123,Rio Grande,BR,63.95,overcast clouds,-32.035,-52.0986,Hotel Atlântico Rio Grande
124,Benjamin Aceval,PY,73.54,clear sky,-24.9667,-57.5667,Escuela Agrícola y Hotel Cerrito
130,Marzuq,YE,61.12,clear sky,14.4,46.4667,
131,Talcahuano,CL,62.28,clear sky,-36.7167,-73.1167,departamento comodo
135,San Juan,AR,75.88,clear sky,-31.5375,-68.5364,Hotel Provincial
137,Agadir,MA,59.45,overcast clouds,30.4202,-9.5982,Iberostar Founty Beach
139,Rocha,UY,56.48,clear sky,-34.4833,-54.3333,Hotel Arrarte
142,Stornoway,GB,46.36,broken clouds,58.2093,-6.3865,Caladh Inn
143,Florianopolis,BR,70.36,overcast clouds,-27.6146,-48.5012,Hotel Boutique Quinta das Videiras
144,Hobart,AU,66.06,broken clouds,-42.8794,147.3294,St Ives Hobart Accommodation Tasmania
145,Lebu,CL,57.85,clear sky,-37.6167,-73.65,Hostal Las Lilas
150,Murindo,CO,75.15,overcast clouds,6.9848,-76.7544,
151,Hualmay,PE,73.0,overcast clouds,-11.0964,-77.6139,Hotel Villa Kitzia Huacho
154,Burnie,AU,68.92,overcast clouds,-41.0667,145.9167,Beachfront Voyager Motor Inn
155,Santa Cruz,BO,72.86,broken clouds,-17.8,-63.1667,Aviador Hotel Boutique
156,Dongying,CN,50.09,clear sky,37.4564,118.4856,Wanda Realm
157,Mazamari,PE,68.04,overcast clouds,-11.3258,-74.5308,Hospedaje Ratto
158,Souillac,MU,77.38,scattered clouds,-20.5167,57.5167,Shanti Maurice Resort & Spa
159,Taltal,CL,67.96,few clouds,-25.4,-70.4833,Residencial Karime
160,Ribeira Grande,PT,56.3,overcast clouds,38.5167,-28.7,Quinta da Meia Eira
161,Cheney,US,48.94,broken clouds,47.4874,-117.5758,"Holiday Inn Express & Suites Cheney, an IHG Hotel"
163,Nioro,GM,75.34,clear sky,13.35,-15.75,
164,Cape Canaveral,US,64.99,broken clouds,28.4058,-80.6048,Residence Inn by Marriott Cape Canaveral Cocoa Beach
169,Grabouw,ZA,54.48,light rain,-34.1515,19.0151,Belfield Wines and Farm Cottages
170,Urucara,BR,74.48,overcast clouds,-2.5364,-57.76,Pousada Maria Bonita
173,Klaksvik,FO,45.52,overcast clouds,62.2266,-6.589,Airbnb rooms
174,Bengkulu,ID,76.01,overcast clouds,-3.8004,102.2655,Grage Hotel Bengkulu
175,Maraa,BR,71.6,overcast clouds,-1.8333,-65.3667,
176,Bandarbeyla,SO,76.98,overcast clouds,9.4942,50.8122,JABIR HOTEL
177,Coquimbo,CL,60.53,few clouds,-29.9533,-71.3436,Hotel San Juan
180,Ponta Do Sol,PT,54.72,broken clouds,32.6667,-17.1,Hotel do Campo
181,Lazaro Cardenas,MX,75.85,clear sky,17.9583,-102.2,HOTEL QUINTA ANTIGUA
184,Muroto,JP,62.33,broken clouds,33.2833,134.15,Oota Ryokan
185,Mareeba,AU,76.44,overcast clouds,-17.0,145.4333,Trinity Plains Tourist Park
187,Naze,JP,67.17,clear sky,28.3667,129.4833,Shishime Hotel
190,Bunia,CD,60.82,broken clouds,1.5667,30.25,Gold Star International Hotel
191,Camacha,PT,49.42,broken clouds,33.0833,-16.3333,Hotel Porto Santo & Spa
193,Mosquera,CO,57.29,scattered clouds,4.7059,-74.2302,Hotel SJ
194,Leku,ET,60.04,overcast clouds,6.8667,38.45,
195,Esperance,AU,69.64,scattered clouds,-33.8667,121.9,Hospitality Esperance
197,Praia,CV,68.54,few clouds,14.9215,-23.5087,LT Aparthotel
199,Mixco,GT,63.39,broken clouds,14.6333,-90.6064,Cabaña Suiza
202,Moron,AR,71.35,clear sky,-34.6534,-58.6198,Hotel Morón
203,Yumen,CN,46.06,overcast clouds,40.2833,97.2,
204,Port Lincoln,AU,77.83,scattered clouds,-34.7333,135.8667,Port Lincoln Hotel
205,Kisangani,CD,69.4,overcast clouds,0.5167,25.2,Grand Ramela Hotel
206,Muros,ES,45.84,light rain,42.7762,-9.0603,Apartment Av. Castelao
212,Kapit,MY,75.6,overcast clouds,2.0167,112.9333,Hotel Meligai Kapit
214,Hamilton,US,47.03,clear sky,39.1834,-84.5333,Six Acres Bed & Breakfast
215,Grass Valley,US,56.82,overcast clouds,39.2191,-121.0611,Holbrooke Hotel
216,Maldonado,UY,60.19,clear sky,-34.6667,-54.9167,La Cimarrona
218,Syracuse,IT,47.57,broken clouds,37.0881,15.2792,Hotel Posta
219,Bud,US,48.18,clear sky,39.447,-86.1758,Ted McQuinn Trust
220,Ericeira,PT,55.35,scattered clouds,38.9627,-9.4156,HOTEL PEDRO O PESCADOR
223,Labrea,BR,72.73,overcast clouds,-7.2586,-64.7981,Hotel Novo Horizonte
225,Baixo Guandu,BR,74.57,clear sky,-19.5189,-41.0158,Hotel e Restaurante Barbosa
226,Mayor Pablo Lagerenza,PY,69.78,broken clouds,-19.9309,-60.7718,
227,Arlit,NE,68.36,clear sky,18.7369,7.3853,Case de Passage De la Prefecture
230,Sacramento,US,65.82,clear sky,38.4666,-121.3177,Woodside Homes
233,Puerto Montt,CL,52.63,clear sky,-41.4698,-72.9447,Gran Hotel Vicente Costanera
238,Sambava,MG,74.7,overcast clouds,-14.2667,50.1667,Melrose
239,Cidreira,BR,69.31,overcast clouds,-30.1811,-50.2056,Hotel Castelo
240,Zuwarah,LY,61.18,broken clouds,32.9312,12.082,تيدارت انغ
241,Kruisfontein,ZA,58.89,light rain,-34.0033,24.7314,Oyster Bay House Rental
245,Mchinji,MW,61.57,overcast clouds,-13.7984,32.8802,Kayesa Inn
246,Komsomolskiy,UZ,52.52,fog,40.4272,71.7189,Ikathouse
252,Ginir,ET,60.06,overcast clouds,7.1333,40.7,Sura Dare Village
253,San Carlos De Bariloche,AR,64.15,clear sky,-41.1456,-71.3082,Hotel Patagonia
254,Ancud,CL,54.23,broken clouds,-41.8697,-73.8203,Hotel Arena Gruesa
257,Victoria,HK,75.25,broken clouds,22.2855,114.1577,Mini Hotel Central
259,Bati,ET,61.43,broken clouds,11.1833,40.0167,Meqdela Hotel
262,Ambilobe,MG,73.74,light rain,-13.2,49.05,Hôtel & Restaurant DIANA Ambilobe
265,Barkhan,PK,68.99,scattered clouds,29.8977,69.5256,Sardar
266,Sinnamary,GF,76.39,moderate rain,5.3833,-52.95,ALETHEIA Appartement Sinnamary
271,Sankeshwar,IN,74.01,clear sky,16.2667,74.4833,Rajdhani Hotel
272,Pithoragarh,IN,47.5,clear sky,29.5833,80.2167,Hipostel Pithoragarh (Cafe Morrison)
274,Salme,NP,50.29,broken clouds,28.0369,85.0942,
278,Lanzhou,CN,49.21,clear sky,36.0564,103.7922,Lanzhou Amdo Xiangbala Hotel
282,Tura,IN,70.61,clear sky,25.5198,90.2201,Hotel RIKMAN Continental
284,Watsa,CD,61.93,scattered clouds,3.0372,29.5355,Hôtel Le Pacifique
288,Algiers,DZ,53.42,broken clouds,36.7525,3.042,Sofitel Algiers Hamma Garden
290,Tuatapere,NZ,65.57,broken clouds,-46.1333,167.6833,Ron and Tony's Bed & Breakfast
295,Portland,US,51.91,overcast clouds,45.5234,-122.6762,Embassy Suites by Hilton Portland Downtown
298,Moroto,UG,69.21,overcast clouds,2.5345,34.6666,"Kara-Tunga, Karamoja Safari Camp"
299,Rusape,ZW,57.45,clear sky,-18.5278,32.1284,Surrey Lodge
301,Nouakchott,MR,71.53,clear sky,18.0858,-15.9785,HOTEL IMAN
302,Kuala Lipis,MY,76.95,overcast clouds,4.1842,102.0468,Lipis Centrepoint Hotel
303,Orange,US,70.47,few clouds,33.7,-117.7675,Meadows
306,Andros Town,BS,71.56,broken clouds,24.7,-77.7667,Hanks place
309,Pasni,PK,76.41,clear sky,25.2631,63.471,Kashmiri Hotal
310,Saint George,US,67.62,clear sky,37.1041,-113.5841,Best Western Plus Abbey Inn
312,Beira,MZ,72.46,few clouds,-19.8436,34.8389,Beira Terrace Hotel
313,Nelson Bay,AU,77.0,clear sky,-32.7167,152.15,Mantra Nelson Bay
314,Tessalit,ML,72.81,clear sky,20.1986,1.0114,
316,Sao Filipe,CV,71.56,clear sky,14.8961,-24.4956,Hotel Xaguate
318,Rawson,AR,62.55,scattered clouds,-43.3002,-65.1023,Hosteria Sampedro
319,North Bend,US,54.25,overcast clouds,43.4065,-124.2243,Red Lion Hotel Coos Bay
320,Solok,ID,72.55,overcast clouds,-0.7918,100.6593,Mami Hotel & Restaurant
321,San Cristobal,VE,71.78,overcast clouds,7.7669,-72.225,Pirineos
326,Jiwani,PK,76.75,clear sky,25.05,61.7417,Al Mumtaz Transport Jiwani
328,Byron Bay,AU,71.94,overcast clouds,-28.65,153.6167,Backpackers Inn
329,Formosa Do Rio Preto,BR,75.88,broken clouds,-11.0483,-45.1931,Porto Center Hotel
330,Calvinia,ZA,50.25,clear sky,-31.4707,19.776,Die Lemoenhuis
331,Aldergrove,CA,52.0,overcast clouds,49.058,-122.4709,Best Western Plus Country Meadows Inn
332,Adrar,MR,66.85,clear sky,20.5022,-10.0711,
333,Los Llanos De Aridane,ES,60.55,few clouds,28.6585,-17.9182,Valle Aridane
334,Mahajanga,MG,77.02,few clouds,-15.7167,46.3167,Restaurant Greedy Coco Lodge Majunga
335,Lakes Entrance,AU,72.88,few clouds,-37.8811,147.981,The Esplanade Resort & Spa
339,Mala,PE,73.26,overcast clouds,-12.6581,-76.6308,Hotel Granda
343,Xunchang,CN,74.75,overcast clouds,28.4543,104.715,Jiabin Inn
344,Pierre,US,48.06,clear sky,44.3683,-100.351,Ramkota Hotel
347,Wynyard,AU,68.95,overcast clouds,-41.0,145.7167,Burnie Airport Motel
349,Matara,LK,75.88,overcast clouds,5.9485,80.5353,Amaloh Boutique Resort
352,Salalah,OM,71.69,clear sky,17.0151,54.0924,"HAMDAN PLAZA HOTEL SALALAH, an HTG Hotel"
353,Airai,TL,72.19,overcast clouds,-8.9266,125.4092,
355,Russell,US,51.4,clear sky,32.3502,-85.1999,Macs
356,Sao Felix Do Xingu,BR,72.84,broken clouds,-6.6447,-51.995,Rio Xingu Camping
360,Kaitangata,NZ,65.23,few clouds,-46.2817,169.8464,Kaitangata Motor Camp
361,Knysna,ZA,60.13,light rain,-34.0363,23.0471,Protea Hotel by Marriott Knysna Quays
364,Mangrol,IN,77.29,clear sky,21.1167,70.1167,Hotel The Royal Honours
365,Hammond,US,48.22,clear sky,41.5834,-87.5,"Courtyard by Marriott Chicago Southeast/Hammond, IN"
366,Manama,BH,66.34,overcast clouds,26.2154,50.5832,Al Safir Hotel
369,Port Shepstone,ZA,71.4,light rain,-30.7414,30.455,My Den Beachfront Bed and Breakfast | Self-Catering
372,Devarkonda,IN,74.03,few clouds,16.7,78.9333,Vishnu Priya Ac Lodge
373,Saint Peters,US,59.14,clear sky,38.8003,-90.6265,Extended Stay America - St. Louis - St. Peters
374,Bonthe,SL,77.49,overcast clouds,7.5264,-12.505,Bonthe Holiday Village
377,Luxor,EG,52.32,clear sky,25.6989,32.6421,Iberotel Luxor
381,Balaguer,ES,48.16,overcast clouds,41.7912,0.8109,Hotel Balaguer
385,Pisco,PE,71.65,light rain,-13.7,-76.2167,Hotel San Isidro Oficial
386,Morro Bay,US,69.01,few clouds,35.3658,-120.8499,Inn at Morro Bay
388,Mbumi,TZ,71.73,overcast clouds,-7.9058,39.2105,
390,Pendleton,US,55.63,scattered clouds,45.6721,-118.7886,Americas Best Value Inn Pendleton
391,Nador,MA,57.45,clear sky,35.174,-2.9287,Hôtel La Giralda
393,Marawi,PH,77.47,scattered clouds,7.9986,124.2928,Derogongan Residence
394,La Palma,US,70.92,clear sky,33.8464,-118.0467,La Quinta Inn & Suites by Wyndham Buena Park
396,Castellammare Del Golfo,IT,52.92,overcast clouds,38.0188,12.8858,Cerri Hotel
398,Namibe,AO,71.29,overcast clouds,-15.1961,12.1522,Hotel Chik Chik Namibe
400,Cockburn Town,TC,77.79,clear sky,21.4612,-71.1419,Osprey Beach Hotel
401,Isoka,ZM,61.43,overcast clouds,-10.1606,32.6335,Location Compound
402,Monte Gordo,PT,55.26,overcast clouds,37.1819,-7.4523,Alcazar Hotel & Spa
403,Geraldton,AU,75.61,scattered clouds,-28.7667,114.6,Broadwater Mariner Resort
404,Comodoro Rivadavia,AR,62.46,clear sky,-45.8667,-67.5,Austral Hotel
405,Tandil,AR,62.92,scattered clouds,-37.3217,-59.1332,Hostal de la Sierra Tandil
406,La Asuncion,VE,76.15,overcast clouds,11.0333,-63.8628,Colinas de Matasiete
408,Morrope,PE,77.59,broken clouds,-6.5417,-80.0111,CASA WAYRA HOTEL
410,Mecca,SA,68.92,clear sky,21.4267,39.8261,"Makkah Clock Royal Tower, A Fairmont Hotel"
411,Dunedin,NZ,66.79,few clouds,-45.8742,170.5036,Scenic Hotel Southern Cross
414,Half Moon Bay,US,63.79,clear sky,37.4636,-122.4286,"The Ritz-Carlton, Half Moon Bay"
415,Sokoto,NG,77.0,overcast clouds,13.0609,5.239,Grand Ibro Hotel
416,Santiago De Cao,PE,69.93,fog,-7.9589,-79.2392,Villa Konecta - Casa de vacaciones
417,Jibuti,DJ,69.98,scattered clouds,11.5,42.5,Orchid Main Camp Goubet
420,Rincon,US,45.86,clear sky,32.296,-81.2354,Days Inn Rincon
421,Lata,PT,46.08,overcast clouds,40.1629,-8.3327,Casa Maquia
422,Itarema,BR,77.72,overcast clouds,-2.9248,-39.9167,"Sea Lounge! Bar, Club & Restaurant"
426,Nouadhibou,MR,63.28,clear sky,20.931,-17.0347,El Medina
428,Djambala,CG,67.51,overcast clouds,-2.5447,14.7533,Hotel Ravin D'or
429,Pacific Grove,US,62.46,clear sky,36.6177,-121.9166,Lovers Point Inn
430,Antequera,ES,52.93,light rain,37.0194,-4.5612,Convento de la Magdalena
431,Praya,CV,68.54,few clouds,14.9215,-23.5087,LT Aparthotel
434,Necochea,AR,58.86,clear sky,-38.5473,-58.7368,dyd -mar Hotel
436,Codrington,AU,72.63,light rain,-38.2667,141.9667,Codrington Gardens Bed And Breakfast
437,Jalu,LY,52.38,clear sky,29.0331,21.5482,صاحبة الفخامة
438,Yago,MX,72.36,clear sky,21.8333,-105.0667,
440,Mana,GF,76.12,overcast clouds,5.6592,-53.7767,LE SAMANA
441,Wukari,NG,77.61,broken clouds,7.85,9.7833,Elimtop
443,Bubaque,GW,75.45,overcast clouds,11.2833,-15.8333,"Casa Dora, Bubaque"
444,Hambantota,LK,76.87,broken clouds,6.1241,81.1185,Bungalow 63
445,Kincardine,GB,46.65,few clouds,56.0667,-3.7167,Premier Inn Falkirk North hotel
446,Helden,DE,48.85,overcast clouds,51.115,7.9519,Burghotel Schnellenberg
448,Shingu,JP,68.14,clear sky,33.7333,135.9833,Shingu UI Hotel
451,Anshun,CN,60.55,overcast clouds,26.25,105.9333,安顺麦吉风格酒店
452,Gberia Fotombu,SL,74.55,overcast clouds,9.8833,-11.1667,
455,Hun,LY,56.52,clear sky,29.1268,15.9477,Alrwasi Hotel
458,Castano Primo,IT,45.43,broken clouds,45.5536,8.7754,"Hotel & Ristorante ""Da Mariuccia"""
459,Viedma,AR,72.27,broken clouds,-40.8135,-62.9967,Hotel Cristal
461,Nautla,MX,62.55,scattered clouds,20.2167,-96.7833,Casa Blanca
463,Ballina,AU,72.01,overcast clouds,-28.8667,153.5667,Ramada Hotel & Suites by Wyndham Ballina Byron
464,Unai,BR,71.06,broken clouds,-16.3575,-46.9061,Hotel Regente
465,Siavonga,ZM,71.83,few clouds,-16.5382,28.7088,Lavongora Waterfront Lodge
466,Pampierstad,ZA,61.97,light rain,-27.7832,24.6877,BAROLONG METHODIST CHURCH
469,Kindu,CD,69.1,overcast clouds,-2.95,25.95,Résidence Okanda
473,Bilma,NE,64.71,clear sky,18.6853,12.9164,Expeditions Ténére voyages
478,Pampas,PE,49.14,overcast clouds,-12.4,-74.9,Pamuri Andes Lodge
479,Kuito,AO,60.04,overcast clouds,-12.3833,16.9333,Herdeiros de Antunes Capusso
481,Owando,CG,70.72,scattered clouds,-0.4819,15.8999,Exaunel Hotel Owando
486,Belluru,IN,66.99,clear sky,12.9911,76.7444,Hotel Mayura
487,Piombino,IT,52.59,overcast clouds,42.9348,10.5221,Hotel Ariston
489,Yanam,IN,69.8,few clouds,16.7333,82.2167,The Regency Hotel
496,Novo Aripuana,BR,74.16,heavy intensity rain,-5.1206,-60.3797,Hotel Ezequiel
497,Praia Da Vitoria,PT,53.76,broken clouds,38.7333,-27.0667,Hotel Branco I
498,Chenzhou,CN,75.88,broken clouds,25.8,113.0333,Thank Inn Chain Hotel hunan chenzhou beihu district wuling square
500,Ibiruba,BR,62.89,overcast clouds,-28.6275,-53.0897,Hotel Pitangueira - O melhor serviço pelo menor preço.
506,Laguna,US,66.06,clear sky,38.421,-121.4238,"Holiday Inn Express & Suites Elk Grove Central - Hwy 99, an IHG Hotel"
509,Tatawin,TN,56.05,overcast clouds,32.9297,10.4518,Sangho Privilege Tataouine
510,Najran,SA,64.49,broken clouds,17.4924,44.1277,محمد هادي ال فطيح
511,Batemans Bay,AU,71.1,clear sky,-35.7167,150.1833,Batemans Bay Marina Resort
512,Itatinga,BR,65.53,overcast clouds,-23.1017,-48.6158,Hotel Restaurante Nova Itatinga
513,Paita,PE,77.2,broken clouds,-5.0892,-81.1144,Hotel Náutico de Paita
515,Constitucion,CL,59.88,clear sky,-35.3333,-72.4167,Hotel Boutique Las Azucenas
518,Sangmelima,CM,67.71,broken clouds,2.9333,11.9833,gamestar hotel
521,Machilipatnam,IN,75.83,overcast clouds,16.1667,81.1333,R&B Bungalow
522,Upington,ZA,64.09,overcast clouds,-28.4478,21.2561,River Place Manor
525,Zhaotong,CN,58.91,clear sky,27.3167,103.7167,Jingguan Home
526,Road Town,VG,77.04,few clouds,18.4167,-64.6167,"ZINGARA 76ft Catamaran, full crew-all included"
527,Maham,IN,66.24,clear sky,28.9833,76.3,Shri Jangid Brahman Dharamshals
529,Sanwer,IN,61.45,clear sky,22.9833,75.8333,STARiHOTELS Hari Phatak Indore
530,Qiryat Yam,IL,49.98,overcast clouds,32.8508,35.0703,Sweet home
531,Sao Gabriel Da Cachoeira,BR,72.19,light rain,-0.1303,-67.0892,Alarne - Área De Lazer Do Alto Rio Negro
533,Pascagoula,US,50.04,clear sky,30.3658,-88.5561,Regency Inn
535,Vila Franca Do Campo,PT,55.2,overcast clouds,37.7167,-25.4333,Pestana Bahia Praia
542,Marsa Matruh,EG,50.88,overcast clouds,31.3525,27.2453,Beau Site
544,Taoudenni,ML,74.37,clear sky,22.6783,-3.9836,
549,Roswell,US,46.08,clear sky,34.0232,-84.3616,La Quinta Inn & Suites by Wyndham Atlanta Roswell
552,Sao Joao Da Barra,BR,77.92,clear sky,-21.6403,-41.0511,Pousada Porto De Canoas
553,Asosa,ET,69.26,overcast clouds,10.0667,34.5333,Blendana Hotel Assosa
556,Aberdour,GB,48.34,few clouds,56.05,-3.3,Aberdour Hotel & Stables Rooms
558,Sabancuy,MX,73.87,overcast clouds,18.9667,-91.1833,pulpo
559,Ojinaga,MX,74.35,clear sky,29.5667,-104.4167,Suites Las Palmas
563,Phalaborwa,ZA,72.68,clear sky,-23.943,31.1411,Bothabelo Bed and Breakfast
566,Dedza,MW,57.34,overcast clouds,-14.3779,34.3332,Kapeleta Dedza Estates
567,Marrakesh,MA,57.27,scattered clouds,31.6315,-8.0083,Les Jardins de La Koutoubia
568,Eureka,US,57.67,overcast clouds,40.8021,-124.1637,Eureka Inn Trademark By Wyndham
570,Eyl,SO,74.7,broken clouds,7.9803,49.8164,Amiin Hotel
571,Springbok,ZA,50.59,few clouds,-29.6643,17.8865,Undulata Country Lodge
575,Charlestown,AU,76.82,few clouds,-32.95,151.6667,Panorama Motor Inn Hotel
577,Ayr,GB,46.29,overcast clouds,55.4627,-4.6339,Mercure Ayr Hotel
581,Zhangye,CN,49.57,few clouds,38.9342,100.4517,Zhangye Lvzhou Holiday Inn
582,Joshimath,IN,50.34,clear sky,30.5667,79.5667,Shivalik Camps & Resort
587,Plettenberg Bay,ZA,60.03,light rain,-34.0527,23.3716,Thanda Vista B&B
589,Codajas,BR,73.67,moderate rain,-3.8367,-62.0569,Atlântic Hotel
590,Paranagua,BR,69.28,overcast clouds,-25.52,-48.5092,Hotel Camboa Paranaguá
591,Balkanabat,TM,48.52,overcast clouds,39.5108,54.3671,Nebitchi Hotel
595,Chimay,BE,45.82,overcast clouds,50.0486,4.3171,Le Petit Chapitre Chimay
601,Kaniama,CD,62.56,overcast clouds,-7.5667,24.1833,
604,Ygatimi,PY,69.75,broken clouds,-24.0833,-55.5,
605,Hasaki,JP,70.29,scattered clouds,35.7333,140.8333,Inubosaki Kanko Hotel
606,Margate,GB,46.31,overcast clouds,51.3813,1.3862,Premier Inn Margate hotel
608,Ringas,IN,69.94,clear sky,27.35,75.5667,SPOT ON 62216 Hotel Shahi Niwas
609,Coolum Beach,AU,76.33,overcast clouds,-26.5333,153.1,Coolum Beach Resort
611,San Quintin,MX,60.37,clear sky,30.4833,-115.95,Don Eddie's Sport Fishing Center
616,Shimoda,JP,71.1,scattered clouds,34.6667,138.95,Shimoda Tokyu Hotel
617,Talavera De La Reina,ES,47.26,overcast clouds,39.9635,-4.8308,Be Live City Center Talavera
620,Dongkan,CN,58.91,broken clouds,33.9997,119.8308,Triumphal Resort
621,Ponta Delgada,PT,55.51,broken clouds,37.7333,-25.6667,Vila Nova Hotel
622,Seoul,KR,49.39,light rain,37.5683,126.9778,롯데호텔 서울
624,Puerto Lempira,HN,77.18,scattered clouds,15.2667,-83.7667,Puerto Lempira gracias a Dios
625,Baffa,PK,62.51,overcast clouds,34.4378,73.2194,Kisan veternary store Baffa
626,Kondagaon,IN,63.03,clear sky,19.6,81.6667,AYAN MOTER
628,Pecos,US,71.69,clear sky,31.4229,-103.4932,Knights Inn & Suites Pecos
629,Moche,PE,69.98,fog,-8.1711,-79.0092,Wyndham Costa del Sol Trujillo
632,Gabu,GW,72.25,scattered clouds,12.2833,-14.2167,Hotel karsa
634,Tondon,GN,68.83,broken clouds,10.3667,-13.35,
637,Longhua,CN,74.17,overcast clouds,23.6137,114.1919,Huadu Hotel
639,Ilhabela,BR,76.64,overcast clouds,-23.7781,-45.3581,Ilha Flat Hotel
640,Raga,SS,75.69,overcast clouds,8.4596,25.678,
641,Aljezur,PT,51.26,overcast clouds,37.3191,-8.8033,Amazigh Hostel
642,Dabhol,IN,77.38,clear sky,17.6,73.1667,Ashwamedh Resort
643,Ixtapa,MX,72.63,clear sky,20.7,-105.2,hotel la terminal
644,Molepolole,BW,64.54,broken clouds,-24.4066,25.4951,Butterfly Tree Guesthouse
645,Atchison,US,59.5,clear sky,39.563,-95.1216,"Quality Inn, Atchison"
647,Villa Del Rosario,CO,77.38,scattered clouds,7.8339,-72.4742,Hotel Villas de San Diego
650,Tome,CL,61.41,clear sky,-36.6167,-72.95,Hotel Saint Denis
651,Chaman,PK,68.22,few clouds,30.9236,66.4512,Niamat parda Center chaman
652,Brae,GB,45.77,overcast clouds,60.3964,-1.353,Busta House Hotel
653,Olbia,IT,51.85,scattered clouds,40.9214,9.4856,Hotel Maxim
657,Foshan,CN,75.24,overcast clouds,23.0268,113.1315,Crowne Plaza Foshan
660,Iquitos,PE,75.24,overcast clouds,-3.7481,-73.2472,Cortez Malaga Techy Caroly
662,Kasangulu,CD,70.77,overcast clouds,-4.5911,15.1708,Hôtel le Relais
664,Flinders,AU,72.25,light rain,-34.5833,150.8552,Shellharbour Resort & Conference Centre
666,Esna,EG,53.96,clear sky,25.2934,32.554,Orient Star Dahabyia Isna 05 Nights Each Sunday
667,Freetown,SL,76.12,broken clouds,8.484,-13.2299,The Country Lodge Hotel
669,Acari,PE,74.08,light rain,-15.4311,-74.6158,HOSPEDAJE XIMENA
670,Valdepenas,ES,45.84,light rain,38.7621,-3.3848,Hotel Veracruz Plaza & Spa
672,Camana,PE,72.27,overcast clouds,-16.6228,-72.7111,Hostal Morales
673,Humaita,BR,74.43,light rain,-7.5061,-63.0208,Corrêa Hotel
674,Adzope,CI,71.37,moderate rain,6.1069,-3.8619,Hôtel AKL
682,Buta,CD,68.65,light rain,2.7858,24.73,HOTEL BISO NA BISO
683,Hirara,JP,75.47,few clouds,24.8,125.2833,Hotel Atoll Emerald Miyakojima
684,Tanabe,JP,67.21,scattered clouds,33.7333,135.3667,美吉屋旅館
686,Waipawa,NZ,59.07,overcast clouds,-41.4122,175.5153,Tora Coastal Walk
687,Gat,IL,47.08,overcast clouds,31.61,34.7642,OlusHome
688,Huarmey,PE,73.99,overcast clouds,-10.0681,-78.1522,Hotel Miramar
689,Wanning,CN,75.87,few clouds,18.8003,110.3967,Paradise Hotel
694,Beloha,MG,72.01,overcast clouds,-25.1667,45.05,
696,Betare Oya,CM,72.03,few clouds,5.6,14.0833,Auberge Tembina Betaré Oya
699,Swinford,IE,45.34,overcast clouds,53.95,-8.95,Deerpark Manor B&B
701,Manoel Urbano,BR,71.33,overcast clouds,-8.8389,-69.2597,Baixada Beira Rio
702,Le Vauclin,MQ,74.84,scattered clouds,14.5452,-60.8388,Hôtel Cap Macabou
704,Tabas,IR,70.63,overcast clouds,33.5959,56.9244,شرکت معماری مهراز شایگان آراد
705,Axim,GH,74.12,light rain,4.8699,-2.2405,Axim Beach Resort And Spa
709,Betioky,MG,74.32,overcast clouds,-23.7167,44.3833,Bungalows Acacias Hotel
710,Santa Rosalia,MX,69.82,clear sky,27.3167,-112.2833,Hotel Las Casitas Santa Rosalia
712,Benghazi,LY,50.4,few clouds,32.1167,20.0667,Tibesti Hotel
718,Kalmunai,LK,77.09,overcast clouds,7.4167,81.8167,VS Villa
720,Lira,UG,66.51,broken clouds,2.235,32.9097,ST Lira Hotel Limited
722,Copiapo,CL,68.94,clear sky,-27.3667,-70.3333,Antay Casino Hotel
724,Madimba,TZ,76.19,broken clouds,-10.4,40.3333,
729,Ocampo,MX,64.18,clear sky,21.65,-101.5,Hotel Estancia del Vaquero
730,Umm Kaddadah,SD,67.57,clear sky,13.6017,26.6876,
735,Puerto Del Rosario,ES,64.15,few clouds,28.5004,-13.8627,Hotel JM Puerto del Rosario
736,Changde,CN,73.76,overcast clouds,29.0464,111.6783,Kangshida Hotel
740,Tezu,IN,75.2,clear sky,27.9167,96.1667,Circuit House
741,Semnan,IR,53.96,clear sky,35.5729,53.3971,Semnan Tourist Hotel
742,Buin,CL,75.74,clear sky,-33.7333,-70.75,Paihuen
743,Port Macquarie,AU,74.28,few clouds,-31.4333,152.9167,Rydges Port Macquarie
746,Anjozorobe,MG,62.06,overcast clouds,-18.4,47.8667,Mandritsara
747,Fukue,JP,64.76,broken clouds,32.6881,128.8419,Goto Guesthouse Utojuku & SA Car Rental
749,Nara,JP,64.49,broken clouds,34.6851,135.8049,Guesthouse Nara Komachi
750,Tocopilla,CL,70.05,clear sky,-22.092,-70.1979,Hotel Galvarino
751,Taguatinga,BR,75.9,scattered clouds,-12.3857,-46.5711,
752,Eidsvag,NO,47.05,overcast clouds,62.7767,8.0668,Eidsvåg Fjordhotell
753,Ndele,CF,74.34,overcast clouds,8.4109,20.6473,
757,Darnah,LY,46.87,few clouds,32.767,22.6367,فندق الفردوس
760,Alamosa,US,46.38,clear sky,37.4695,-105.87,Best Western Alamosa Inn
761,Paramonga,PE,73.36,overcast clouds,-10.6667,-77.8333,HOSTAL MI CHALET - PARAMONGA
762,Cayenne,GF,75.09,light rain,4.9333,-52.3333,Hôtel Le Dronmi
771,Sao Felipe,BR,73.49,overcast clouds,-14.8167,-41.3833,
774,Winnemucca,US,51.85,few clouds,40.973,-117.7357,Winners Inn Casino
775,Jiazi,CN,73.76,clear sky,22.8779,116.067,Hotel Jin Hao
779,Maunabo,PR,76.82,clear sky,18.0072,-65.8993,Maunacaribe
781,Clarence Town,AU,76.95,scattered clouds,-32.5833,151.7833,River Downs Cottage
784,Tucupita,VE,70.68,broken clouds,9.0622,-62.051,Hotel Tucupita Su​ite C.A.
786,Tianpeng,CN,68.47,overcast clouds,30.9866,103.9393,Shuangliu Love Home Business Hotel
788,Boralday,KZ,46.26,broken clouds,43.3578,76.8594,"Zhetysu, Too Zhetysu"
789,Ellisras,ZA,66.9,broken clouds,-23.6649,27.7443,Lapa le le guesthouse
790,Kibara,TZ,70.65,broken clouds,-2.15,33.45,
793,Hit,IQ,50.27,scattered clouds,33.6416,42.8251,صالون زيرو
794,Calatayud,ES,46.8,overcast clouds,41.3535,-1.6432,Globales Castillo de Ayud
797,Roseburg,US,53.71,overcast clouds,43.2165,-123.3417,"Holiday Inn Express Roseburg, an IHG Hotel"
798,Borazjan,IR,72.73,overcast clouds,29.2666,51.2159,شرکت زرمهریار شعبه سوم
799,Antofagasta,CL,63.68,broken clouds,-23.65,-70.4,"Holiday Inn Express Antofagasta, an IHG Hotel"
801,Port Hardy,CA,46.58,light intensity shower rain,50.6996,-127.4199,Airport Inn-Port Hardy
802,Kijang,KR,55.13,overcast clouds,35.2442,129.2139,Samyang Beach Villa
805,General Roca,AR,73.62,clear sky,-39.0333,-67.5833,Hotel El Recreo
807,Falam,MM,65.21,scattered clouds,22.9167,93.6833,Falang Government Guesthouse
810,Bull Savanna,JM,75.76,few clouds,17.8868,-77.5902,Big Red's
814,Saint-Leu,RE,76.32,light rain,-21.15,55.2833,La Caz Oceane
815,Sakakah,SA,51.01,clear sky,29.9697,40.2064,Fakhamat Al Orjoana Apartment
816,Fort Walton Beach,US,51.01,clear sky,30.4058,-86.6188,Best Western Ft. Walton Beachfront
819,Uruzgan,AF,57.63,clear sky,32.8333,66.0,
822,Mizan Teferi,ET,62.92,overcast clouds,6.9833,35.5833,Hotel Salayish - ሳላይሽ ሆቴል
825,Harlingen,US,66.15,overcast clouds,26.1906,-97.6961,Courtyard by Marriott Harlingen
826,Hami,CN,52.29,overcast clouds,42.8,93.45,Laoyutang Resort
828,Doha,QA,69.78,mist,25.2867,51.5333,Movenpick Hotel Doha
830,Methven,NZ,67.01,clear sky,-43.6333,171.65,Brinkley Resort
831,Digha,IN,72.45,overcast clouds,21.6833,87.55,Khoniker Atithi
832,Harer,ET,59.38,clear sky,9.3094,42.1258,Amir Cultural Harari Guesthouse
835,Arica,CL,70.03,clear sky,-18.475,-70.3042,Hostal Jardin Del Sol
837,Umm Lajj,SA,65.01,clear sky,25.0213,37.2685,Moon light Furnished Units
839,Sechura,PE,76.55,broken clouds,-5.5569,-80.8222,Hospedaje Costa Bella
842,Kingsland,US,48.9,clear sky,30.8,-81.6898,Microtel Inn & Suites by Wyndham Kingsland
843,Birao,CF,74.14,scattered clouds,10.2849,22.7882,
844,Togitsu,JP,66.18,fog,32.8333,129.85,Yasuda Ocean Hotel Togitsu
846,Anupgarh,IN,76.5,clear sky,29.1911,73.2086,Kushal & Vishal DTH Kappa Internet Service
847,Qandala,SO,76.51,clear sky,11.472,49.8728,
848,Miramar,US,70.02,broken clouds,25.9873,-80.2323,Stadium Hotel
849,Mandurah,AU,73.9,scattered clouds,-32.55,115.7,Atrium Hotel Mandurah
850,Chamba,IN,61.66,scattered clouds,32.5667,76.1333,NotOnMap - Rafi's House
852,Karera,IN,72.43,clear sky,25.4667,78.15,श्री हिमांशु जोशी (निवास)
857,Salinas,US,66.0,clear sky,36.6777,-121.6555,Laurel Inn & Conference Center
861,Araouane,ML,72.16,clear sky,18.9048,-3.5265,
863,Nishihara,JP,74.48,scattered clouds,26.1842,127.7558,Minshuku Agaihama
864,Beroroha,MG,73.89,overcast clouds,-21.6667,45.1667,
865,Lerwick,GB,46.4,overcast clouds,60.1545,-1.1494,The Lerwick Hotel
866,Conceicao Do Araguaia,BR,73.96,clear sky,-8.2578,-49.2647,Tarumã Tropical Hotel
869,Mount Hagen,PG,74.12,broken clouds,-5.8581,144.2274,Highlander Hotel & Apartments
870,Anta,IN,74.25,clear sky,25.15,76.3,Agnisaman Kendra
871,Vilhena,BR,69.46,moderate rain,-12.7406,-60.1458,Hotel Mirage
872,Cocachacra,PE,71.82,overcast clouds,-17.0883,-71.7575,Hospedaje - El Refugio
873,Boca Do Acre,BR,72.52,overcast clouds,-8.7522,-67.3978,Hotel Sao Pedro
876,Hanmer Springs,NZ,67.19,few clouds,-42.5167,172.8167,The Chalets Motel
878,Phaltan,IN,71.47,clear sky,17.9833,74.4333,Hotel New Vijay
879,Puri,IN,73.92,few clouds,19.8,85.85,OYO 1577 Hotel Shree Hari Grand
880,Sidi Ali,DZ,54.46,overcast clouds,36.0998,0.4206,
881,Wattegama,LK,72.48,broken clouds,6.7989,81.4808,
883,Prudentopolis,BR,65.16,overcast clouds,-25.2131,-50.9778,Mayná Hotel Prudentópolis
884,Tres Arroyos,AR,58.78,clear sky,-38.3739,-60.2798,Habitacion Triple con baño y entrada privada
887,Navolato,MX,75.63,scattered clouds,24.7672,-107.6944,Cofradía de San pedro Navolato sinaloa
890,Atar,MR,71.13,clear sky,20.5169,-13.0499,Oumou Elghoura
892,Roald,NO,46.54,few clouds,62.5833,6.1333,Flem Cabins
894,Aketi,CD,68.85,overcast clouds,2.7388,23.7833,
899,Acapulco,MX,76.82,few clouds,16.8634,-99.8901,HS Hotsson Smart Acapulco
901,Saint-Joseph,RE,75.58,light rain,-21.3667,55.6167,"""Plantation Bed and Breakfast"
903,Namwala,ZM,63.95,overcast clouds,-15.7504,26.4384,Corner Point Lodge
